{"type":"FeatureCollection","features":[{"geometry": {"type": "Point", "coordinates": [68.947, 26.022]}, "type": "Feature", "id": 0, "properties": {"Latitude": 26.022, "Location": "Sanghar", "Longitude": 68.947}},{"geometry": {"type": "Point", "coordinates": [68.2165, 27.5544]}, "type": "Feature", "id": 1, "properties": {"Latitude": 27.5544, "Location": "Larkano", "Longitude": 68.2165}},{"geometry": {"type": "Point", "coordinates": [68.5276, 27.6468]}, "type": "Feature", "id": 2, "properties": {"Latitude": 27.6468, "Location": "Kamber Shahdadkot", "Longitude": 68.5276}},{"geometry": {"type": "Point", "coordinates": [68.1596, 26.7439]}, "type": "Feature", "id": 3, "properties": {"Latitude": 26.7439, "Location": "Naushahro Feroze", "Longitude": 68.1596}},{"geometry": {"type": "Point", "coordinates": [68.6343, 27.9582]}, "type": "Feature", "id": 4, "properties": {"Latitude": 27.9582, "Location": "Shikarpur", "Longitude": 68.6343}},{"geometry": {"type": "Point", "coordinates": [68.3578, 25.396]}, "type": "Feature", "id": 5, "properties": {"Latitude": 25.396, "Location": "Hyderabad", "Longitude": 68.3578}},{"geometry": {"type": "Point", "coordinates": [68.7587, 27.5567]}, "type": "Feature", "id": 6, "properties": {"Latitude": 27.5567, "Location": "Khairpur", "Longitude": 68.7587}},{"geometry": {"type": "Point", "coordinates": [68.276, 25.5936]}, "type": "Feature", "id": 7, "properties": {"Latitude": 25.5936, "Location": "Matiari", "Longitude": 68.276}},{"geometry": {"type": "Point", "coordinates": [68.303, 25.4214]}, "type": "Feature", "id": 8, "properties": {"Latitude": 25.4214, "Location": "Jamshoro", "Longitude": 68.303}},{"geometry": {"type": "Point", "coordinates": [67.91, 24.7481]}, "type": "Feature", "id": 9, "properties": {"Latitude": 24.7481, "Location": "Thatta", "Longitude": 67.91}},{"geometry": {"type": "Point", "coordinates": [68.607, 25.4611]}, "type": "Feature", "id": 10, "properties": {"Latitude": 25.4611, "Location": "Tando Muhammad Khan (TMK)", "Longitude": 68.607}},{"geometry": {"type": "Point", "coordinates": [68.435, 28.297]}, "type": "Feature", "id": 11, "properties": {"Latitude": 28.297, "Location": "Jacobabad", "Longitude": 68.435}},{"geometry": {"type": "Point", "coordinates": [69.0149, 25.5252]}, "type": "Feature", "id": 12, "properties": {"Latitude": 25.5252, "Location": "Mirpurkhas", "Longitude": 69.0149}},{"geometry": {"type": "Point", "coordinates": [68.7115, 25.451]}, "type": "Feature", "id": 13, "properties": {"Latitude": 25.451, "Location": "Tando Allahyar", "Longitude": 68.7115}},{"geometry": {"type": "Point", "coordinates": [67.8758, 24.704]}, "type": "Feature", "id": 14, "properties": {"Latitude": 24.704, "Location": "Sujawal", "Longitude": 67.8758}},{"geometry": {"type": "Point", "coordinates": [69.1706, 25.3871]}, "type": "Feature", "id": 15, "properties": {"Latitude": 25.3871, "Location": "Umerkot", "Longitude": 69.1706}},{"geometry": {"type": "Point", "coordinates": [69.5358, 25.2778]}, "type": "Feature", "id": 16, "properties": {"Latitude": 25.2778, "Location": "Tharparkar", "Longitude": 69.5358}},{"geometry": {"type": "Point", "coordinates": [68.8333, 24.3167]}, "type": "Feature", "id": 17, "properties": {"Latitude": 24.3167, "Location": "Badin", "Longitude": 68.8333}}]}