{"type":"FeatureCollection","features":[{"geometry": {"type": "Point", "coordinates": [68.947, 26.022]}, "type": "Feature", "id": 0, "properties": {"PartiallyP": 109, "Latitude": 26.022, "Longitude": 68.947, "FullyPubli": 72, "Location": "Sanghar"}},{"geometry": {"type": "Point", "coordinates": [68.2165, 27.5544]}, "type": "Feature", "id": 1, "properties": {"PartiallyP": 0, "Latitude": 27.5544, "Longitude": 68.2165, "FullyPubli": 0, "Location": "Larkano"}},{"geometry": {"type": "Point", "coordinates": [68.5276, 27.6468]}, "type": "Feature", "id": 2, "properties": {"PartiallyP": 0, "Latitude": 27.6468, "Longitude": 68.5276, "FullyPubli": 0, "Location": "Kamber Shahdadkot"}},{"geometry": {"type": "Point", "coordinates": [68.1596, 26.7439]}, "type": "Feature", "id": 3, "properties": {"PartiallyP": 0, "Latitude": 26.7439, "Longitude": 68.1596, "FullyPubli": 0, "Location": "Naushahro Feroze"}},{"geometry": {"type": "Point", "coordinates": [68.6343, 27.9582]}, "type": "Feature", "id": 4, "properties": {"PartiallyP": 0, "Latitude": 27.9582, "Longitude": 68.6343, "FullyPubli": 0, "Location": "Shikarpur"}},{"geometry": {"type": "Point", "coordinates": [68.3578, 25.396]}, "type": "Feature", "id": 5, "properties": {"PartiallyP": 0, "Latitude": 25.396, "Longitude": 68.3578, "FullyPubli": 0, "Location": "Hyderabad"}},{"geometry": {"type": "Point", "coordinates": [68.7587, 27.5567]}, "type": "Feature", "id": 6, "properties": {"PartiallyP": 0, "Latitude": 27.5567, "Longitude": 68.7587, "FullyPubli": 0, "Location": "Khairpur"}},{"geometry": {"type": "Point", "coordinates": [68.276, 25.5936]}, "type": "Feature", "id": 7, "properties": {"PartiallyP": 0, "Latitude": 25.5936, "Longitude": 68.276, "FullyPubli": 0, "Location": "Matiari"}},{"geometry": {"type": "Point", "coordinates": [68.303, 25.4214]}, "type": "Feature", "id": 8, "properties": {"PartiallyP": 0, "Latitude": 25.4214, "Longitude": 68.303, "FullyPubli": 0, "Location": "Jamshoro"}},{"geometry": {"type": "Point", "coordinates": [67.91, 24.7481]}, "type": "Feature", "id": 9, "properties": {"PartiallyP": 0, "Latitude": 24.7481, "Longitude": 67.91, "FullyPubli": 0, "Location": "Thatta"}},{"geometry": {"type": "Point", "coordinates": [68.607, 25.4611]}, "type": "Feature", "id": 10, "properties": {"PartiallyP": 0, "Latitude": 25.4611, "Longitude": 68.607, "FullyPubli": 0, "Location": "Tando Muhammad Khan (TMK)"}},{"geometry": {"type": "Point", "coordinates": [68.435, 28.297]}, "type": "Feature", "id": 11, "properties": {"PartiallyP": 0, "Latitude": 28.297, "Longitude": 68.435, "FullyPubli": 0, "Location": "Jacobabad"}},{"geometry": {"type": "Point", "coordinates": [69.0149, 25.5252]}, "type": "Feature", "id": 12, "properties": {"PartiallyP": 0, "Latitude": 25.5252, "Longitude": 69.0149, "FullyPubli": 0, "Location": "Mirpurkhas"}},{"geometry": {"type": "Point", "coordinates": [68.7115, 25.451]}, "type": "Feature", "id": 13, "properties": {"PartiallyP": 0, "Latitude": 25.451, "Longitude": 68.7115, "FullyPubli": 0, "Location": "Tando Allahyar"}},{"geometry": {"type": "Point", "coordinates": [67.8758, 24.704]}, "type": "Feature", "id": 14, "properties": {"PartiallyP": 0, "Latitude": 24.704, "Longitude": 67.8758, "FullyPubli": 0, "Location": "Sujawal"}},{"geometry": {"type": "Point", "coordinates": [69.1706, 25.3871]}, "type": "Feature", "id": 15, "properties": {"PartiallyP": 0, "Latitude": 25.3871, "Longitude": 69.1706, "FullyPubli": 0, "Location": "Umerkot"}},{"geometry": {"type": "Point", "coordinates": [69.5358, 25.2778]}, "type": "Feature", "id": 16, "properties": {"PartiallyP": 0, "Latitude": 25.2778, "Longitude": 69.5358, "FullyPubli": 0, "Location": "Tharparkar"}},{"geometry": {"type": "Point", "coordinates": [68.8333, 24.3167]}, "type": "Feature", "id": 17, "properties": {"PartiallyP": 0, "Latitude": 24.3167, "Longitude": 68.8333, "FullyPubli": 0, "Location": "Badin"}}]}