{"type":"FeatureCollection","features":[{"geometry": {"type": "Point", "coordinates": [73.48074, 34.24808]}, "type": "Feature", "id": 0, "properties": {"Latitude": 34.24808, "Bridges": 0, "Location": "Dolai", "Longitude": 73.48074}},{"geometry": {"type": "Point", "coordinates": [73.7275, 34.3725]}, "type": "Feature", "id": 1, "properties": {"Latitude": 34.3725, "Bridges": 0, "Location": "Dongakass (Muzaffarabad)", "Longitude": 73.7275}},{"geometry": {"type": "Point", "coordinates": [73.91, 34.59]}, "type": "Feature", "id": 2, "properties": {"Latitude": 34.59, "Bridges": 0, "Location": "neelum valley", "Longitude": 73.91}},{"geometry": {"type": "Point", "coordinates": [73.726, 34.479]}, "type": "Feature", "id": 3, "properties": {"Latitude": 34.479, "Bridges": 0, "Location": "Gulpurnarplak Road", "Longitude": 73.726}},{"geometry": {"type": "Point", "coordinates": [73.831138, 33.190559]}, "type": "Feature", "id": 4, "properties": {"Latitude": 33.190559, "Bridges": 0, "Location": "Islamgarh", "Longitude": 73.831138}},{"geometry": {"type": "Point", "coordinates": [73.75277778, 33.08361111]}, "type": "Feature", "id": 5, "properties": {"Latitude": 33.08361111, "Bridges": 0, "Location": "Chichian", "Longitude": 73.75277778}},{"geometry": {"type": "Point", "coordinates": [74.067, 32.983]}, "type": "Feature", "id": 6, "properties": {"Latitude": 32.983, "Bridges": 0, "Location": "Bhimber", "Longitude": 74.067}},{"geometry": {"type": "Point", "coordinates": [74.04555556, 32.99333333]}, "type": "Feature", "id": 7, "properties": {"Latitude": 32.99333333, "Bridges": 0, "Location": "Randyam", "Longitude": 74.04555556}}]}